post_type,category,post_month,post_weekday,post_hour,paid,total_interactions,post_ratio_engaged_consumers,post_ratio_imp_reach_log,post_ratio_imp_reach_like_log,post_ratio_engaged_consumption_log
Photo,2,12,4,3,0.0,100,0.6123595505617978,1.047293494159432,1.0566887391493762,0.8484976205791077
Status,2,12,3,10,0.0,164,0.9341111873713109,1.0374079099149613,1.0701795973263086,0.920613505176159
Photo,3,12,3,3,0.0,80,0.6384180790960452,1.0339908797191437,1.0546342137645537,0.7731898882334818
Photo,2,12,2,10,1.0,1777,0.3573043871551334,1.0135358982046572,1.0661708408353183,0.5918668337691168
Photo,2,12,2,3,0.0,393,0.6110283159463488,1.056604702968825,1.080533175268204,0.902048375158612
Status,2,12,1,9,0.0,186,0.9009235936188077,1.0955837704855047,1.1125242368320205,0.8616765544014343
Photo,3,12,1,3,1.0,279,0.5509355509355509,0.9805833281458791,0.9762088182082588,0.6731598396353328
Photo,3,12,7,9,1.0,339,0.43202979515828677,1.0149612810411441,1.0240218074579819,0.5439211634975075
Status,2,12,7,3,0.0,192,0.9196078431372549,1.065711761379957,1.0728363459755608,0.8559460708650359
Photo,3,12,6,10,0.0,142,0.6535714285714286,1.046129760074454,1.0487673515537541,0.813718063017762
Status,2,12,5,10,0.0,252,0.9628933771723814,1.0807632338779758,1.0976444643494467,0.7863487670685111
Photo,2,12,5,10,0.0,106,0.6105769230769231,1.0282872779823433,1.0253060142701302,0.6306268235786112
Photo,2,12,5,10,0.0,104,0.5958549222797928,1.0306726031658169,1.0380982624088624,0.6286086594223741
Photo,2,12,5,3,0.0,152,0.5381526104417671,1.071841540741994,1.0626760383890776,0.6513000706244448
Photo,2,12,4,5,1.0,599,0.37993235625704624,1.0127015570229208,1.0231890040975364,0.4760162191001295
Status,2,12,3,10,0.0,108,0.9564873417721519,1.083925776360416,1.1054520479615952,0.8003562447741726
Photo,3,12,3,3,0.0,54,0.754601226993865,1.0047141969573719,1.0221082859311619,0.7899344655072834
Photo,1,12,2,12,1.0,713,0.6465416178194607,1.1309817186781088,1.2017176487310024,0.8181302812035222
Status,3,12,2,3,0.0,75,0.6615384615384615,1.0683891436623665,1.1244175297048253,0.7461716488681657
Photo,3,12,1,11,0.0,42,0.7272727272727273,1.0208715596191444,1.0376466670009232,0.7466879474879752
Photo,2,12,1,3,0.0,81,0.71,1.0220163494135033,1.0346283202527218,0.7756366719352087
Photo,1,12,7,10,0.0,0,1.0,1.023354997637294,1.0556074052252593,0.8472978603872036
Link,1,12,7,10,0.0,18,0.8813559322033898,1.0932902963301687,1.1073908484151658,0.8003927109135429
Photo,3,12,7,3,0.0,96,0.6704545454545454,1.0278603555936319,1.039746862954889,0.6931471805599453
Status,2,12,6,10,0.0,121,0.947054436987323,1.0302755907037051,1.0461540782035346,0.9148827058947766
Status,2,12,6,3,0.0,106,0.9612097304404996,1.0378971267800863,1.068503571041331,0.8861751079695315
Status,2,12,5,11,0.0,494,0.9019957234497505,1.010242304320995,1.0319723936186187,1.0724148907178805
Photo,3,12,5,3,0.0,117,0.5849056603773585,1.0071151152826514,1.0332264077756423,0.6405848504690898
Photo,2,12,5,3,0.0,622,0.5745118191161357,1.0683112305486173,1.0788307226497185,0.8858813264263601
Video,1,12,4,11,1.0,174,0.9360210341805434,0.9902645494579372,1.1426716675854192,1.408846720867682
Photo,2,12,4,2,0.0,162,0.7948051948051948,1.0649899106402494,1.0986122886681098,1.0421000784047674
Photo,2,12,3,10,0.0,39,0.890625,1.0080836871981438,1.046377971769778,0.9884338523969456
Photo,3,12,3,3,0.0,204,0.6440217391304348,1.0346123430114444,1.0472175795449112,0.8273779554253547
Photo,3,12,2,9,0.0,125,0.6902985074626866,1.019383521621847,1.0343389140255295,0.8211867163835178
Photo,1,12,2,3,0.0,75,0.87248322147651,1.0641245597669466,1.0878901601692026,1.017544465579328
Photo,2,12,1,11,0.0,199,0.6713947990543735,1.004483443909616,1.013261377605332,0.8603229715459052
Photo,3,12,1,3,0.0,113,0.6666666666666666,1.0007958729832673,1.0178455204314796,0.7587843441999245
Photo,1,12,7,10,1.0,100,0.8851774530271399,0.8951186824989454,1.059459402671879,1.4459697659689934
Status,2,12,7,9,0.0,269,0.9719730941704036,1.0580889523215755,1.0858388336255111,0.9536916765925603
Photo,1,12,7,3,0.0,59,0.9281045751633987,1.0471590070791938,1.0748544815290022,0.9660443800761128
Status,2,12,6,11,0.0,262,0.9304136253041363,1.0374949501051864,1.0600277886134626,0.9497570684223501
Link,1,12,6,3,1.0,211,0.7079303675048356,0.9317123309172831,1.025612585375405,0.8928199430859037
Photo,1,12,5,10,0.0,36,0.996166746526114,1.0732051023570637,1.0676996956060836,1.9619828205164294
Link,1,12,5,3,1.0,46,0.8134328358208955,0.9610218998064589,0.9903157044220774,0.9869983040384415
Photo,1,12,4,11,0.0,58,0.8901408450704226,1.084428765231269,1.099987237324153,1.016276002007474
Link,1,12,4,3,1.0,71,0.7669902912621359,0.9686602541495724,1.0744588586804518,0.9616242731756762
Status,1,12,3,11,0.0,214,0.9697648376259799,1.0461837569025234,1.0613821442281415,0.9529048145361779
Link,1,12,3,2,0.0,32,0.8556701030927835,1.0325834801145084,1.0835273292159406,0.9694005571881035
Photo,1,12,2,11,0.0,92,0.8372781065088757,1.0769854946290287,1.0886122053335263,0.9582549309731873
Link,1,12,2,2,0.0,14,0.9047619047619048,1.1033752333726623,1.1194781259834043,0.834052633637183
Photo,2,11,1,9,0.0,58,0.6018518518518519,1.0387951146976593,1.0568992948727627,0.8036890549597692
Photo,1,11,1,3,1.0,337,0.6432506887052342,0.9513623845194304,1.0557293635449132,1.0693638595418775
Photo,1,11,7,9,0.0,242,0.5098591549295775,1.0361512520729028,1.0338770913572228,0.7290791897860087
Photo,1,11,7,3,0.0,87,0.7679324894514767,1.0484242143168918,1.0676418578012872,1.0969525372497453
Photo,1,11,6,10,0.0,83,0.8192307692307692,1.0438040521731147,1.0979498176269884,1.245388908042653
Video,1,11,6,2,1.0,81,0.8954248366013072,1.08054061854116,1.175692031210989,0.9102116857977729
Photo,1,11,5,11,0.0,220,0.5947521865889213,1.0298283227013247,1.0297227816962122,0.8127803555044902
Photo,1,11,5,3,0.0,53,0.793939393939394,1.0661323938002636,1.0760916099519306,0.8092704647979644
Photo,1,11,4,10,0.0,90,0.7521739130434782,1.0774174654238557,1.11433053921003,1.0805937831654313
Photo,1,11,4,3,1.0,160,0.7220902612826603,1.41961488558041,1.5410258912842343,1.0479191743525917
Photo,1,11,3,11,1.0,123,0.8033573141486811,1.2683370643942746,1.3747574782407435,1.048253496726051
Photo,1,11,3,2,1.0,162,0.8142857142857143,1.442583796347967,1.6680899276203958,1.322141122206311
Photo,1,11,2,10,1.0,202,0.8154613466334164,0.9734723322380969,1.0612175183388062,1.4128981066378665
Photo,1,11,2,3,1.0,245,0.6192236598890942,1.3886798146612942,1.4957091471057575,0.9985288301111271
Photo,1,11,1,10,0.0,69,0.7844827586206896,1.1710384132303266,1.2026090127746316,0.8860023818093455
Photo,1,11,1,3,0.0,119,0.8370786516853933,1.0315204194353016,1.0636705149846213,1.1906704330860571
Photo,1,11,7,11,0.0,55,0.7918781725888325,1.070614234631458,1.1030738657303112,0.8587668877359684
Photo,1,11,7,3,1.0,787,0.6313451776649747,1.0132457718624204,1.1597837608504702,0.978989326089719
Photo,1,11,6,11,0.0,70,0.7962085308056872,1.0277396863854522,1.0531952465345138,0.7799148631411558
Photo,1,11,6,3,0.0,119,0.8,1.0697227230008823,1.0942958702182075,1.051457150750832
Photo,1,11,5,10,1.0,162,0.782312925170068,1.286254377784881,1.492935657351596,1.1211733240537556
Video,1,11,5,3,1.0,550,0.8257972394098049,1.1592898359390542,1.42547942337693,1.2903059852909275
Status,3,11,4,11,0.0,273,0.841948310139165,1.0320300629990515,1.0458955064957054,0.9392679650111074
Photo,1,11,4,2,1.0,233,0.7531531531531531,1.6142845894018163,1.4302780189777244,0.9696367125794478
Video,1,11,3,11,0.0,114,0.8858800773694391,1.1732106055228841,1.1828846572255747,0.9131538258736606
Photo,1,11,3,2,1.0,505,0.7026086956521739,1.0422782227118739,1.1089750757036563,1.0480941130094168
Photo,1,11,3,2,0.0,0,1.0,1.0810871961127289,1.0810871961127289,0.750305594399894
Photo,1,11,1,10,0.0,97,0.8538812785388128,1.2722135656908016,1.269642931332819,1.1212547654178695
Photo,2,11,1,3,0.0,64,0.7695852534562212,1.071488811577806,1.0696735263345574,0.8629447511688624
Photo,1,11,7,12,0.0,38,0.9726443768996961,1.1857198547211172,1.1381431274247449,1.5011000964749923
Status,2,11,7,3,0.0,101,0.9738562091503268,1.1126818053435927,1.1312088255415087,0.8532692427233302
Photo,3,11,6,10,0.0,441,0.5494672754946728,1.0497469964679567,1.073047276368195,0.7867566796822527
Photo,1,11,6,3,0.0,252,0.6740088105726872,1.1007197710076744,1.1453170618093018,0.8809183421214646
Photo,3,11,5,10,1.0,122,0.7570093457943925,1.0898378035642722,1.0935489867115629,0.9577904627809077
Status,3,11,5,2,0.0,117,0.542713567839196,1.0839607470945376,1.1826132101900104,0.6438761315531626
Photo,1,11,4,9,1.0,158,0.7291666666666666,1.11305669765815,1.138769610515174,1.0163741904311376
Link,1,11,4,3,0.0,163,0.6909090909090909,1.2772725947348258,1.2921553702060287,1.0218674403768404
Photo,3,11,3,10,0.0,311,0.58,1.0928629914916903,1.1266203430421853,0.7809853455255692
Photo,1,11,3,3,0.0,39,0.8915094339622641,1.0486130332937522,1.0129175675632267,2.351708202064173
Photo,1,11,2,11,1.0,126,0.7566844919786097,1.1188286105968301,1.1536921169815204,0.9869082990881084
Photo,1,11,2,3,0.0,421,0.6674556213017752,0.9188763829591778,1.0233984886896563,0.9882421854008516
Photo,2,11,1,9,0.0,91,0.7665505226480837,1.114557787085877,1.142026238892821,0.9117555767087638
Photo,3,11,1,3,0.0,342,0.5799011532125206,1.0872062636977056,1.0910368990136274,0.7719791296318853
Photo,3,11,7,9,0.0,129,0.6967741935483871,1.0664914056005905,1.0474074043517867,0.8066291343169382
Photo,2,11,7,4,0.0,148,0.6740506329113924,1.058599182446426,1.0641734780744387,0.7999410946407336
Photo,3,10,6,10,0.0,185,0.6572890025575447,1.0504368222646807,1.0853472646421936,0.8014045202593638
Photo,1,10,6,3,0.0,65,0.8858024691358025,1.1982342997137676,1.038106031058477,2.4841487869248984
Photo,2,10,5,11,0.0,142,0.6855345911949685,1.0491656479796212,1.0744846623533286,0.8164703965919441
Status,2,10,5,3,1.0,378,0.9174055062995801,1.0981041925467883,1.1235305930793882,0.9364356410132644
Photo,1,10,4,10,0.0,430,0.686624203821656,0.9982775049877983,0.9938214113053792,0.9290781879592808
Photo,1,10,4,9,1.0,0,1.0,1.0323528082858775,1.07268379364194,1.0001722158548572
Photo,2,10,4,3,0.0,1626,0.5053353658536586,0.9255832330354827,1.029529407370028,0.8926758249087492
Photo,3,10,3,10,0.0,79,0.8506944444444444,1.0490912905846896,1.0956263204895478,0.9759392677175345
Photo,1,10,3,4,0.0,17,0.9776785714285714,1.0412843402003074,1.0224746316871867,1.8582945424400494
Photo,1,10,2,11,1.0,72,0.8823529411764706,1.121289562468776,1.1425327620913093,1.0363353591465951
Photo,1,10,2,4,0.0,1136,0.8171641791044776,0.9528463390227825,1.1375536338879637,1.4112716442060877
Photo,3,10,1,11,0.0,222,0.7300884955752213,1.0870229816036492,1.1077415655563676,0.910174504856719
Status,2,10,1,4,0.0,238,0.911660777385159,1.1176498955218477,1.1324350557277596,0.9326696239581949
Photo,3,10,7,9,0.0,148,0.740625,1.0445527007234068,1.0482769883976022,0.8374569705497574
Status,2,10,7,3,0.0,271,0.9647147147147147,1.091958134215436,1.077101915660387,0.9193057204132558
Photo,1,10,6,10,0.0,34,0.9585798816568047,1.158357511233401,1.0183237297333472,1.9517565648576936
Photo,1,10,6,8,0.0,0,1.0,0.9974430536743817,1.0204248690963194,0.9102116857977729
Photo,2,10,6,4,0.0,139,0.7652733118971061,1.049945675350306,1.0477687356868357,0.8623176681294891
Photo,2,10,1,3,1.0,97,0.8509485094850948,1.0394179412313749,1.0633320975720584,0.8776450167764954
Photo,1,10,7,13,0.0,17,0.9621621621621622,1.0031136488952652,1.0132252014089949,0.8180404543988334
Photo,1,10,7,12,1.0,6,0.9876160990712074,1.0745447369390522,1.104351185337128,0.8680004427463741
Photo,1,10,7,12,0.0,458,0.8232044198895028,1.0240329098664687,1.0203523760520905,0.8441440690769765
Photo,1,10,7,11,0.0,7,0.9834983498349835,1.0594464436940416,1.090373313123557,0.8168498952366285
Photo,1,10,7,10,0.0,9,0.9824561403508771,1.0586558932963515,1.0900530352724398,0.897308280961865
Photo,1,10,7,10,0.0,8,0.9771863117870723,1.0990362869784684,1.1387067458699878,0.8888917576860407
Photo,1,10,7,9,0.0,2,0.9926739926739927,1.0159500952969818,1.0457040678897602,0.8448317678920102
Status,2,10,7,9,0.0,232,0.9710940358580314,1.0747676135602413,1.0918737186949004,0.8725702870549737
Photo,1,10,7,8,0.0,4,0.9883268482490273,1.0190630869154442,1.044868012661419,0.8525506630100632
Photo,1,10,7,7,0.0,6,0.9737991266375546,1.0064306512505146,1.0276981870032644,0.8702193814677562
Photo,1,10,7,6,0.0,7,0.9800796812749004,1.0640483672130334,1.0877129982100742,0.8786233141024153
Photo,1,10,7,5,0.0,9,0.9661016949152542,1.0408454701333696,1.0623297834866863,0.8531118302526234
Photo,3,10,7,3,0.0,242,0.7278481012658228,1.0901591529570516,1.0645871352371261,0.826678573184468
Photo,1,10,6,13,0.0,10,0.9734513274336283,1.0755916376777293,1.0922630609894508,0.9080091110424331
Photo,1,10,6,13,0.0,5,0.9846153846153847,1.0049544897003524,1.024319165615877,0.8541589507671489
Photo,1,10,6,12,0.0,3,0.9951456310679612,1.0994960713151176,1.122479770074753,0.8919980393051105
Photo,1,10,6,11,0.0,10,0.9710144927536232,1.0432621935849447,1.072266562782994,0.8768881840081262
Photo,1,10,6,9,0.0,10,0.9942396313364056,1.1344037299996488,1.1161504442645742,1.4817219876329064
Photo,1,10,6,9,0.0,10,0.9748743718592965,1.014218533893664,1.0322201988812156,0.8813684594810882
Photo,1,10,6,8,0.0,12,0.9626168224299065,1.112321566593143,1.1391621373164988,0.8621014030269525
Photo,1,10,6,6,0.0,34,0.897196261682243,1.0359045850762647,1.0592613950286993,0.8449140690319273
Photo,1,10,6,2,0.0,68,0.9150943396226415,1.1235031762665662,1.13551170631602,0.9962926307166547
Link,1,10,5,10,0.0,48,0.8921568627450981,1.108214410881336,1.152109330316362,0.8964418607341789
Photo,1,10,5,8,0.0,39,0.9,1.1777999300219126,1.2089923054400395,0.8558019703935041
Status,2,10,5,3,0.0,154,0.9635135135135136,1.0762569455318285,1.0889743496613014,0.9144314192839718
Photo,1,10,4,10,1.0,100,0.8738317757009346,1.145686474447415,1.1729828313891797,1.0134122719874286
Link,1,10,4,3,0.0,202,0.9447674418604651,1.4655328618893402,1.1698050405463367,1.1372271247958892
Status,3,10,3,10,0.0,265,0.9587101848210775,1.0823102182647113,1.0981906693192658,0.8736013231791044
Status,2,10,3,2,1.0,1009,0.9626865671641791,1.073593098262318,1.0964120270773012,1.134890153410656
Photo,3,10,2,10,1.0,447,0.6162464985994398,1.2111891927186893,1.0691502559377934,0.7976598792954321
Photo,1,10,2,3,1.0,53,0.9917920656634747,1.326516904797653,1.3797788395700885,2.0170445167512354
Photo,1,10,1,10,1.0,96,0.9147727272727273,1.122858899534287,1.1404007622229542,1.0722255334949147
Photo,3,10,1,3,0.0,204,0.669833729216152,1.2470703535020815,0.9866893426751994,0.8820727745638138
Photo,3,10,7,10,0.0,94,0.801980198019802,1.003753047478317,1.0126028893496521,0.8261843799448572
Status,2,10,7,4,0.0,179,0.9542450432130147,1.073574462614088,1.0826443344121772,0.7885069278876391
Link,1,10,6,11,1.0,35,0.8108108108108109,1.0662924881107083,1.0965834155570127,0.8192586403228106
Photo,1,10,6,4,0.0,367,0.9125890736342043,1.3407421214793387,1.4571593850118756,1.2365621218749665
Photo,2,10,5,11,0.0,200,0.7756813417190775,1.0495477726531879,1.0526969045287515,0.9196748298583955
Photo,2,10,5,4,1.0,454,0.7468982630272953,1.0448356113234902,1.067825098071591,0.9931859857006317
Photo,1,10,4,10,0.0,193,0.8942189421894219,1.2059332594544694,1.206937329195048,1.165132971009672
Photo,2,10,4,1,0.0,387,0.7305630026809652,1.046133577291171,1.0301162667137262,0.9610824900768917
Photo,2,9,3,7,0.0,70,0.9161490683229814,1.022386881931146,1.0586497824410717,1.025693698716555
Photo,2,9,2,11,0.0,163,0.8699360341151386,1.060810518640452,1.0752587634504573,0.9856123164523259
Photo,3,9,2,2,0.0,137,0.7923076923076923,1.040478913527799,1.0649510060949778,0.8920510911102106
Photo,2,9,1,10,0.0,252,0.8183279742765274,1.0530904701227568,1.0577650259895228,0.9353312098725265
Photo,2,9,1,3,1.0,98,0.8323699421965318,1.0664710794563128,1.0888322596144702,0.9112237648263201
Photo,3,9,7,9,0.0,409,0.5970937912813739,0.9527862451072846,0.9508985867655376,0.732113149093329
Photo,2,9,7,3,0.0,282,0.7474916387959866,1.0358090679726673,1.040189098670846,0.948412923649759
Photo,3,9,6,10,0.0,410,0.7984395318595578,1.03490172901849,0.9888111166950974,1.0275958077216312
Status,2,9,6,4,0.0,288,0.9354313619099295,1.0646361500177657,1.0926421216816058,0.8385313671750211
Photo,1,9,5,10,0.0,18,0.943609022556391,1.061452343754369,1.0851116014492073,0.9752992850022651
Photo,2,9,5,3,1.0,132,0.8275862068965517,1.011144632949448,1.0121010367201622,0.9007865453381898
Photo,1,9,4,10,1.0,84,0.8670520231213873,1.314260537728512,1.376315344947977,1.003387794995537
Photo,3,9,4,2,1.0,557,0.5582959641255605,1.0420885384230583,1.027312005241291,0.70374424193181
Photo,1,9,3,10,0.0,1974,0.7181008902077152,0.9656795843897682,0.9794306263066568,1.0703070121312899
Photo,2,9,3,2,1.0,121,0.8571428571428571,1.0357465240063362,1.0334098009700594,0.9717794174918083
Photo,3,9,2,9,0.0,217,0.7517482517482518,1.0276244438506315,1.0488231049347094,0.8919586312146245
Photo,1,9,2,2,0.0,38,0.9277777777777778,1.0517321592333655,1.0758247549417874,1.0057958757421872
Status,2,9,1,10,0.0,228,0.9822314049586777,1.0890636460397303,1.1037340597843683,0.8619455655425634
Photo,1,9,1,4,0.0,225,0.7779816513761468,1.010140109600821,1.0096390910839779,0.9732746104138962
Photo,2,9,7,3,0.0,243,0.7636986301369864,1.0448187233802932,1.041858541994943,0.9369573686827142
Status,2,9,6,10,1.0,189,0.965981308411215,1.0549466833531649,1.070028056986915,0.8187748762647366
Photo,3,9,6,3,1.0,1174,0.5451523545706372,0.9805882358058546,1.0001100081016774,0.7881877640830659
Photo,1,9,5,11,0.0,276,0.734472049689441,1.0096073607397311,0.9968236656743056,0.8627620860847851
Photo,2,9,5,2,0.0,299,0.7699680511182109,1.0607953411395792,1.0543151214442636,0.978548750313001
Photo,2,9,4,10,0.0,194,0.8007448789571695,1.0366141202086936,1.0352866746827276,0.9073399013540705
Status,2,9,4,4,1.0,199,0.9464769647696477,1.081217982185652,1.0845545491778779,0.85446328327009
Photo,1,9,3,10,0.0,114,0.8700475435816165,1.3196431897077245,1.3677658012277765,1.1214517806379325
Photo,3,9,3,2,1.0,271,0.7397959183673469,1.0561751407242694,1.0586237369425782,0.8864933690692104
Video,1,9,2,10,0.0,472,0.9403846153846154,1.0507001349639122,1.1100850118392183,1.2131601225379816
Photo,2,9,2,3,0.0,90,0.8854961832061069,1.0250141857494017,1.0520567623000938,0.9565469097847223
Photo,1,9,1,10,0.0,72,0.8957219251336899,1.027601253024921,1.0529494133375479,0.9736090050382391
Photo,2,9,1,6,0.0,263,0.7444852941176471,1.0234776418990432,1.0204926819171076,0.9692131333284976
Photo,2,9,7,10,0.0,67,0.8484848484848485,0.9727590825952378,0.99084173733646,0.9179986742193111
Photo,3,9,7,4,1.0,117,0.8032345013477089,0.9981705757018858,1.0070731395905215,0.8591323180342064
Photo,2,9,2,10,0.0,164,0.8146718146718147,1.0072512898205814,1.0031701740393966,0.9781007383585222
Photo,3,9,2,3,1.0,119,0.8371559633027523,0.9919954914380217,1.000595183733527,0.9631743177730056
Photo,3,8,1,10,0.0,818,0.5114054451802796,0.9977919094146569,1.0212312894624664,0.6783320947748046
Photo,2,8,1,4,0.0,70,0.8594164456233422,0.9636897431350303,0.97770269134288,0.9140577573698426
Photo,2,8,7,10,1.0,133,0.853515625,0.958985907346468,0.9652971824075751,0.9399665675594396
Photo,1,8,7,3,0.0,490,0.8001200480192077,1.1697624667907929,1.225084285119488,0.9348959197051895
Photo,2,8,6,10,0.0,330,0.7539118065433855,0.9756092914602998,0.947488261060295,0.9717455677893198
Photo,1,8,6,8,0.0,73,0.899749373433584,1.0043886751453297,1.0191114395827432,0.9967060078783709
Photo,2,8,5,13,0.0,60,0.9068493150684932,0.9658742320629831,0.9831307500000055,0.9951681884269122
Photo,1,8,4,9,1.0,32,0.9353932584269663,1.0319562080794769,1.0506400743108837,1.0144827580533688
Photo,3,8,4,10,0.0,1290,0.5199590583418628,1.0762790288146162,1.1145728081739974,0.7289437811903651
Photo,2,8,4,3,1.0,166,0.8192771084337349,0.9971382096829429,1.0062678926330377,0.9321844271173848
Photo,1,8,3,9,0.0,45,0.955607476635514,1.0791709704995083,1.1090118151511725,1.0668960752886436
Status,2,8,3,2,1.0,70,0.9817549956559514,1.0073001691896248,1.0218847228125778,0.8965625204136995
Photo,3,8,2,10,0.0,243,0.8023255813953488,1.3418928153781615,1.601813162070639,1.0269621968399671
Photo,3,8,2,3,0.0,132,0.8197969543147208,0.9903136157487361,1.0047574933558459,1.0134296229470239
Photo,1,8,1,12,1.0,42,0.9272237196765498,1.005941523587004,1.0228451936653147,1.0341522882011454
Photo,1,8,1,3,0.0,931,0.7040178571428571,1.222019872386171,1.2940671534272803,0.9370787427284708
Photo,2,8,7,10,0.0,162,0.8204158790170132,0.9802934908772928,0.9874755275585386,1.1122295203599404
Photo,3,8,7,3,0.0,66,0.9077809798270894,0.9657782333445227,0.9759188130275623,1.1420116042026653
Photo,2,8,6,10,1.0,98,0.8563829787234043,0.989527869252151,0.9889318663320559,0.997709325865304
Photo,3,8,6,3,1.0,107,0.9254341164453525,1.24542534142292,1.2986396503942728,1.163072289135074
Photo,3,8,5,10,0.0,287,0.6317460317460317,0.9655820235910325,1.0075991428490816,0.7493534400789705
Photo,2,8,5,1,0.0,50,0.9304347826086956,0.9987508796290818,1.0126932110770888,1.0203114382543517
Photo,3,8,4,11,1.0,15,0.9675090252707581,0.9495293733498888,0.9633970858430553,1.062310661991895
Photo,3,8,4,3,1.0,470,0.5462085308056872,0.9946301089317546,1.0239417024904585,0.7127408744603466
Photo,1,8,3,10,0.0,126,0.9331450094161958,1.1761588086635948,1.26463910186359,1.29842266330045
Photo,2,8,3,4,0.0,28,0.9669421487603306,1.0114641969335818,1.0237288942581366,1.058695681262667
Status,2,8,2,12,0.0,57,0.9407894736842105,1.0305301820885913,1.03565349677758,0.8399068437408145
Photo,1,8,2,7,0.0,100,0.9720028715003589,1.0585724607892173,1.0697405509816076,1.282779487346352
Photo,3,8,1,12,0.0,271,0.8218465539661899,1.0000481838544422,1.0033409762676415,1.0368097473494131
Photo,2,8,1,4,0.0,96,0.8483290488431876,1.0010949504713094,1.0194578598110053,0.971376110367971
Photo,3,8,7,10,0.0,212,0.7864963503649635,0.9838023959064407,0.975663005374124,0.9879732498498194
Status,2,8,7,4,0.0,86,0.9558676028084253,1.0049754457460778,1.012835327339487,0.8183410884849578
Status,2,8,6,10,1.0,404,0.9626112759643917,1.0225393893124048,1.0243919093140774,1.0366206126401418
Photo,1,8,6,6,0.0,103,0.9034090909090909,1.0297043464775701,1.0458587357064162,1.148043200649826
Status,2,7,5,14,0.0,121,0.9837283339228865,0.9753142695379828,0.9792203330400668,0.872935426181695
Photo,3,7,5,8,1.0,217,0.7230443974630021,1.052761561103043,1.061386794341013,0.8994836135577738
Photo,1,7,4,10,1.0,126,0.8226037195994278,1.292811453241329,1.516426143038846,1.1362637948717982
Photo,2,7,4,3,0.0,456,0.6808755760368663,0.9061749798922838,0.9465751577303044,0.9107368761913579
Photo,2,7,3,13,0.0,130,0.8423423423423423,0.9656243447825749,0.9721377448932678,0.8871341475826995
Photo,3,7,2,23,0.0,135,0.8278301886792453,1.0268820504391656,1.0375440866363315,0.9107709386505571
Photo,3,7,2,13,0.0,114,0.8342696629213483,0.9943599029367273,0.994994751262095,0.9400659973678133
Status,2,7,2,6,1.0,21,0.9333333333333333,1.0649464560800763,1.074636868756533,0.7949298748698875
Photo,1,7,1,11,0.0,54,0.903125,0.8989815091390437,0.932913706252955,1.066572934923493
Photo,2,7,1,5,0.0,120,0.8575268817204301,0.9790171587597088,0.9730185318077826,1.1210585943203766
Status,2,7,7,10,0.0,17,0.9296875,1.0151129423243446,1.0236107048068888,0.7212051333551027
Photo,3,7,7,4,0.0,294,0.8576122672508215,1.0343839488258284,1.026890975276472,1.0638506862919874
Photo,2,7,6,10,0.0,139,0.8349056603773585,1.0142785599805293,1.0116009116784799,0.9988694295694608
Photo,1,7,6,2,0.0,128,0.8758314855875832,1.037482712748662,1.0568151599896483,0.9672932863265278
Photo,2,7,5,11,1.0,186,0.8336755646817249,1.0144377930136796,1.0071517313049816,1.1107449619935266
Photo,3,7,5,3,0.0,624,0.5826771653543307,1.015544901305749,1.031438244225857,0.7888175692893392
Photo,1,7,4,11,0.0,144,0.8582089552238806,1.0069816216885032,1.014061893426987,0.987524082266959
Status,2,7,4,6,0.0,572,0.9514185775359503,1.077127371539527,1.0911836344712433,1.4251616906210607
Video,1,7,3,11,1.0,409,0.9870867768595041,1.0465133463564622,1.0678817475770694,1.4594115682495354
Photo,2,7,3,5,1.0,6334,0.49677898909811696,1.0182138304198463,1.1357458974089458,1.0586192628829179
Photo,1,7,2,13,0.0,188,0.8840304182509505,0.9174415627571215,0.9657300359560279,1.3377277855483716
Photo,2,7,2,8,0.0,88,0.9145454545454546,1.029892102763978,1.0586069540544105,1.181746188911319
Photo,2,7,1,12,0.0,115,0.8909426987060998,1.0576096419930863,1.076390809102536,1.1391794736571097
Photo,3,7,1,6,0.0,118,0.8966725043782837,0.9785512640044499,0.9974342723855518,1.1181387110184648
Photo,2,7,7,11,1.0,68,0.9269311064718163,0.9826051540280353,0.9996641187855719,1.1147416705979933
Photo,1,7,7,6,1.0,85,0.9163987138263665,0.936334739869097,0.9474249251798847,1.123538375030886
Photo,1,7,6,11,0.0,234,0.8437856328392246,0.9605462550115944,1.0938333852652349,1.0812932532108985
Photo,3,7,6,5,0.0,274,0.8544973544973545,1.015715297239806,1.0019400379137178,1.0992580749353058
Status,2,7,5,12,1.0,300,0.9627637567232106,1.0175364760478969,1.015217309940769,0.9875359136545417
Photo,3,7,5,3,0.0,823,0.5944444444444444,0.9209026110190633,1.0076300262489872,0.8970693071925572
Photo,2,7,4,12,1.0,85,0.9534883720930233,0.9970021122573273,0.9817054468818536,1.0876923985540874
Photo,1,7,4,6,1.0,160,0.8922363847045192,0.949375751682619,1.0466381818180888,1.0637047304573077
Photo,1,7,3,13,1.0,118,0.945273631840796,0.9628400464199194,1.0544349871885277,1.2475517447004507
Photo,2,7,3,1,0.0,203,0.8715328467153285,1.0445713966983976,1.0624250895601637,1.118077623456213
Photo,3,7,2,13,0.0,202,0.8888888888888888,1.0266451865249715,1.0216796360573412,1.166006206402085
Photo,2,7,2,7,1.0,143,0.9101283880171184,1.0506874495757679,1.056437363617397,1.16857087727502
Photo,1,7,1,13,0.0,290,0.8578838174273858,0.9068589846274195,0.963881135851683,1.0800981391039663
Photo,2,7,1,3,0.0,79,0.9317738791423001,0.9707561668766891,0.9833874534347646,1.139043327296241
Photo,2,7,7,11,1.0,75,0.9327272727272727,0.9848602333293806,1.0048798110054025,1.158801085679215
Photo,3,7,7,3,0.0,596,0.6568265682656826,0.8903878268268497,0.8652308836533115,0.9577413075141569
Photo,3,7,6,13,1.0,55,0.9526515151515151,0.9641382180433191,0.9827234492214374,1.0945389632804738
Photo,1,7,6,3,0.0,101,0.9234828496042217,1.015565287714885,1.057527927153886,1.287634628778023
Status,2,7,5,10,0.0,87,0.978275627970129,0.9807556342830884,0.9905928209471146,0.9286867016729204
Photo,1,7,5,3,0.0,195,0.9471947194719472,1.0487525764563805,1.0270524761832502,3.4518646297834947
Photo,1,7,4,9,1.0,53,0.9572815533980582,1.0196105023038369,1.0476563192964075,1.127599825541362
Photo,2,7,4,5,1.0,730,0.7049425861208187,0.802011051692159,0.8689529736310841,1.1450390598626348
Photo,1,7,3,10,1.0,269,0.8849706129303107,0.9801309980605656,1.1030595164850023,1.199300890965193
Photo,1,7,3,3,1.0,587,0.8636206299757702,0.8081462305138437,0.945833798598276,1.5264651063896162
Photo,3,7,4,12,0.0,171,0.9265143992055611,0.9809208574637667,0.9769594152887112,1.1629180080353358
Photo,2,7,4,3,0.0,71,0.9877094972067039,0.9825816292773762,1.0021520224805474,1.217671648684098
Status,2,7,3,13,0.0,148,0.9839657936932121,0.9993788479667344,0.9986981398919933,1.2178757094949273
Photo,3,7,3,4,1.0,30,0.9916897506925207,0.9396766230949523,0.9800113908576888,1.1991223501921866
Video,1,6,2,13,0.0,271,0.9235525576166386,1.0964133565202754,1.3287697523826731,1.2051625724615247
Photo,1,6,2,9,1.0,218,0.9079578139980825,1.1068913266002005,1.1115437499802294,3.553238511316649
Photo,1,6,2,3,0.0,194,0.9627742946708464,1.0131868280106386,1.081374304643734,1.5316960787539133
Photo,2,6,1,12,0.0,49,0.9795918367346939,0.9274363580890713,0.9447442289884104,1.2214197179296566
Photo,2,6,1,4,0.0,89,0.9592959295929593,0.9599714073167801,0.9835888472827432,1.225131029833282
Status,2,6,7,11,0.0,117,0.9790178571428572,0.98869634964347,0.9945685694708188,0.992674814613958
Photo,1,6,7,4,1.0,39,0.9864285714285714,1.0144976652041804,1.020317322136608,1.3100287303038594
Photo,1,6,6,12,0.0,152,0.9423666462293072,0.9923370226640977,1.014497735720072,1.0953416397999869
Status,2,6,6,4,0.0,94,0.9689655172413794,1.0009232965674166,1.0157125180581723,1.1587808101345625
Photo,1,6,5,11,1.0,18,0.9845758354755784,1.0004322330174549,1.0014751476352732,3.1918471524802814
Photo,1,6,4,22,1.0,125,0.9188034188034188,0.7759994665529429,0.9020823858719899,1.2377439127116525
Photo,1,6,4,12,0.0,605,0.7320169252468265,0.871624899336433,0.8941972576346259,1.115831257143643
Photo,1,6,4,11,0.0,67,0.8529411764705882,0.9914924318462608,1.0131199762270084,1.127391253218153
Photo,1,6,4,7,0.0,25,0.9916107382550335,1.065488241243077,1.116469906068116,1.1511303229515562
Photo,2,6,4,3,0.0,172,0.9043824701195219,0.9744722846803203,0.9716662648906994,1.1707471566976155
Photo,1,6,3,11,0.0,24,0.984182776801406,0.9954701001570521,1.0200454813673503,1.1768850843751877
Photo,2,6,3,3,0.0,95,0.9327868852459016,1.0284791784680722,1.0432937050314803,1.1854014187405006
Photo,1,6,2,13,0.0,93,0.9493487698986975,0.96052024752775,0.9509439756820415,1.1294766128587215
Photo,1,6,2,2,0.0,66,0.9810344827586207,1.0493400806233517,1.0629079696489667,1.169246324784658
Photo,3,6,1,14,0.0,117,0.9267955801104972,0.9740976066879727,0.9654172617680337,1.0425100270122358
Photo,3,6,1,3,0.0,72,0.9273049645390071,0.9509351611249794,0.9771147356073107,1.0055218656020977
Photo,2,6,7,11,0.0,94,0.9146537842190016,0.9229017705751305,0.9361589350908802,1.0726368022648491
Photo,1,6,7,4,0.0,15,0.9928571428571429,1.0077930506379473,1.0231909096272074,1.1303295161954456
Photo,2,6,6,9,0.0,285,0.856985698569857,0.9744619302069892,1.0047998993212393,1.0655644346219093
Photo,3,6,6,2,1.0,89,0.9112318840579711,1.0134990864622033,1.0368955990773556,1.0250935917229542
Photo,1,6,5,13,1.0,234,0.8892908827785818,0.9583750871763957,1.0886518444951936,1.241800847759916
Photo,3,6,5,3,1.0,363,0.7157360406091371,0.8415835238607744,0.8926574894598464,0.9487546625645565
Photo,1,6,4,12,0.0,155,0.8088235294117647,0.8700614324320783,0.9653514222186442,1.3965358551720874
Photo,3,6,4,2,0.0,238,0.8610451306413301,1.0092691509079048,1.0086303802709042,1.0231966257546814
Photo,2,6,3,13,0.0,188,0.9013333333333333,0.9788150307053204,0.9824647401004655,1.156103564290278
Photo,3,6,3,3,1.0,184,0.8893229166666666,1.0155863817294206,1.0286875036225613,1.0906757390723734
Photo,3,6,2,13,0.0,163,0.9076773566569485,0.8415195988302933,0.8611869725478707,1.275014856857823
Photo,3,6,2,3,0.0,135,0.922882427307206,0.9846511889025046,0.9846347442489071,1.1706434168769926
Photo,1,6,1,13,0.0,25,0.987987987987988,1.0283671894974182,1.0534646332447326,1.220213011348749
Photo,3,6,1,3,0.0,99,0.9307228915662651,0.9341394402839509,0.9488390729640654,1.1501950366107236
Photo,3,6,7,10,0.0,73,0.9464594127806563,0.94903794075812,0.9694321343073256,1.1379432007305335
Photo,3,6,7,3,1.0,82,0.9520865533230294,0.9619740882179848,0.9689840120077564,1.2096305280457949
Photo,1,6,6,12,1.0,28,0.9920489296636086,0.8735200356603802,1.040850612553201,1.4407220076959244
Photo,3,6,6,4,0.0,218,0.915863840719332,0.9090712180824463,0.9939509689634549,1.371843242581716
Photo,3,6,5,12,0.0,75,0.9576719576719577,0.9481824317136845,0.9550867564593318,1.3084107043030473
Photo,2,6,5,3,0.0,90,0.9344729344729344,0.9826713241703764,1.0189647152042245,1.2895349609711564
Photo,3,6,4,13,0.0,226,0.875,0.994312850705239,1.0140451259944996,1.187664066284012
Photo,2,6,4,5,1.0,235,0.9333917616126205,1.0390468338560555,1.0634721276152856,1.2697912437234788
Photo,1,6,3,11,0.0,41,0.9657444005270093,0.8603545998250685,1.0217871606254756,1.2952642245353432
Photo,3,6,2,13,0.0,59,0.9397590361445783,0.976688156851091,0.9984685631283754,1.2103742893779768
Photo,3,6,2,5,1.0,83,0.9321428571428572,1.0182812937978385,1.048505468613931,1.1385561547997536
Photo,3,6,1,10,0.0,1439,0.5172547499030632,1.0480790053583449,1.1324467104411666,0.6983221887045105
Photo,3,6,1,3,1.0,65,0.9277566539923955,0.9818533186414165,1.000197664061396,1.086517583784765
Photo,3,6,1,3,0.0,45,0.9726775956284153,1.0072065879235088,1.0342487303513854,1.283205467402728
Photo,2,5,7,14,0.0,97,0.9113573407202216,0.99478812554554,1.02515160762379,1.2347948268717261
Photo,3,5,5,9,1.0,122,0.9168110918544194,1.0238522134590005,1.0486737990136394,1.0777309126157542
Photo,3,5,4,12,0.0,691,0.7024940617577197,0.8858420871188559,0.9648682884101721,1.0744039669038388
Photo,3,5,4,4,1.0,180,0.8874269005847953,1.0314247593589616,1.0530883428404523,1.0861897686695525
Photo,3,5,3,12,0.0,251,0.8751191611058151,0.9572874099315334,0.9905358923533657,1.303683058922625
Photo,3,5,3,5,0.0,134,0.9046242774566474,1.0463977597612384,1.0793079549245934,1.216698033574572
Photo,3,5,2,12,0.0,60,0.9328621908127208,1.003743512534602,1.0323766566770445,1.1526795099383853
Photo,3,5,2,1,0.0,84,0.9395973154362416,1.0514411834854065,1.0854983953123352,1.1360267245183673
Status,2,5,1,2,0.0,67,0.9773838630806846,0.9874194872715454,0.9980246589636589,0.9962094392995321
Photo,2,5,7,2,0.0,180,0.8761061946902655,1.0000257193192383,1.0057031892653325,1.1876870624551505
Photo,3,5,6,14,0.0,83,0.9106463878326996,0.9838010234008837,1.002718648239404,1.0920333175700674
Photo,3,5,6,6,0.0,99,0.9048507462686567,1.015859257361057,1.0385608970192775,1.1250904139359363
Photo,3,5,5,10,1.0,313,0.8578371810449574,1.0154213556758658,1.0073636172029647,1.2150008798579597
Photo,1,5,4,10,0.0,390,0.8239171374764596,1.0311057479577697,1.0297067106472977,1.0924114579242667
Photo,3,5,4,4,0.0,254,0.8379970544918999,1.009205700952525,1.0214585739445257,1.0917582522403175
Photo,3,5,3,11,0.0,114,0.8829787234042553,1.012322152243463,1.0319551226702532,1.0333833981555178
Photo,2,5,2,11,0.0,232,0.8514986376021798,1.024607766573964,1.0690035174154013,1.1816552986223272
Photo,3,5,1,13,1.0,136,0.879837067209776,1.0076369498872075,1.018310192702264,1.0946830105282201
Link,1,5,1,2,0.0,63,0.936046511627907,0.9318312323133929,0.9307926273754683,0.8629921501497931
Photo,3,5,7,13,1.0,179,0.8427152317880795,0.9900711466205131,1.0175757899459104,0.9690328695713567
Photo,3,5,7,2,0.0,948,0.7406440382941688,0.9829029484409542,0.9856404608468762,0.9229419707448799
Photo,3,5,6,13,0.0,72,0.9081632653061225,0.9599788441596916,0.9818761908145599,1.0546077032986907
Photo,3,5,6,8,1.0,190,0.8432055749128919,1.0213652287727368,1.0555469852372734,1.131962268349664
Photo,3,5,5,13,0.0,1806,0.5456666666666666,0.9258665122198418,1.0701367925460243,0.935244367855013
Photo,2,5,5,9,0.0,190,0.8683431952662722,1.020449408294008,1.049121825496265,1.1657789322119505
Photo,3,5,4,13,1.0,203,0.8578052550231839,1.0056551367424296,1.016092229519305,1.0222393098835356
Status,1,5,4,3,1.0,255,0.9229864785420341,1.020820086503362,1.0192354431024915,1.0290760865511117
Photo,3,5,3,7,0.0,429,0.672636815920398,0.8657461188215586,0.9199499396088139,0.9204241891912622
Photo,2,5,2,14,0.0,118,0.8967391304347826,1.0057756524873998,1.0232186459719943,1.0265637843551922
Photo,1,5,2,8,0.0,188,0.8976,1.0562474662209589,1.1155379395514524,1.1360221424174284
Photo,3,5,1,13,0.0,167,0.8558718861209964,1.0355006405431386,1.054918274106557,0.9953264625511438
Photo,2,5,1,3,0.0,309,0.7895500725689405,1.010565935481865,1.0093064556049565,0.9971228924978268
Photo,2,5,7,14,0.0,174,0.8707964601769912,1.0011740939081588,1.0088512291053917,1.1380807105172328
Photo,3,5,7,2,0.0,335,0.808974358974359,1.0034452830354088,0.998572909189,1.0844777777332049
Photo,1,5,6,9,0.0,99,0.9341421143847487,0.9994056385846616,1.0190434496420657,1.120135025683848
Photo,3,5,6,3,0.0,105,0.8768898488120951,1.0078834352783475,1.0528005172981225,0.9627041035929822
Status,2,5,5,7,0.0,166,0.948237885462555,1.037073308312037,1.0314035389746596,1.2039728043259361
Photo,3,4,4,15,1.0,210,0.8722826086956522,1.0055826989724959,1.0059409006111693,0.9870910142357024
Photo,1,4,3,13,0.0,236,0.9287054409005628,1.143882010077337,1.1663436732587344,1.1832861657172142
Photo,3,4,3,8,0.0,157,0.8894230769230769,1.020398126254778,1.0405699688368122,0.9366061089005425
Photo,3,4,2,13,0.0,355,0.8198895027624309,1.0196109128316586,1.0254547467375101,0.948073350915999
Photo,3,4,2,2,1.0,189,0.9066305818673883,0.9982841771877159,1.0153909061827888,1.0606640388631186
Photo,1,4,1,2,0.0,54,0.9382504288164666,0.8561555809318496,0.8610942643213457,0.9146364717781285
Photo,2,4,7,3,1.0,200,0.8757062146892656,1.0203246783110358,1.0457078865266174,0.9772321268308768
Photo,1,4,6,14,0.0,528,0.8414634146341463,1.0807955549963746,1.0831954279943914,0.9855648577575604
Status,2,4,6,3,1.0,587,0.9334545454545454,1.0788788863094596,1.0443681128819882,1.3664850848654364
Link,1,4,5,7,1.0,56,0.9587020648967551,0.824165519919577,0.9798007637716263,1.4006144148946391
Photo,1,4,5,5,0.0,121,0.9521829521829522,0.9830559662322998,0.9886113934537812,1.2535165480336676
Photo,1,4,4,12,1.0,75,0.9523099850968704,0.9954027740547383,1.0276652372804034,0.9550963062959502
Photo,3,4,4,7,1.0,316,0.7506024096385542,0.9066687937566975,0.887657103278007,0.799995949920764
Photo,3,4,3,7,0.0,79,0.9326241134751773,0.9127063897723415,0.9321581960985191,0.9110136747733113
Photo,3,4,2,13,1.0,295,0.850835322195704,0.9771854092420298,0.9866838963784088,1.0652252726353728
Photo,1,4,2,6,1.0,165,0.9094650205761317,0.8652065729025481,0.9383735604193583,1.1458021714710678
Photo,3,4,1,14,1.0,2177,0.5657630522088354,0.8755996865702456,1.021544391706005,1.0121642390804768
Photo,1,4,7,14,0.0,212,0.9148797920727745,1.08588430832189,1.2796257603839243,1.2653018659329471
Photo,3,4,6,20,0.0,280,0.8692946058091287,0.9795772182920159,1.0024179428832745,1.0424008038362058
Photo,1,4,6,13,0.0,87,0.9526462395543176,0.9887168906092236,1.0355737179882407,1.023696398878036
Photo,3,4,6,3,0.0,122,0.9274924471299094,0.9723699880657498,1.0152531140805385,0.985880440143968
Photo,1,4,5,13,0.0,69,0.9596412556053812,0.957367043183328,0.991104222917607,1.0704414117014134
Photo,3,4,5,7,1.0,183,0.8751902587519026,0.9840093553348903,1.0149413252587738,1.0492911980195216
Photo,1,4,4,3,0.0,56,0.961352657004831,0.8328793156392694,0.9840877131307544,1.0900063835752303
Photo,1,4,3,13,1.0,126,0.9042857142857142,0.9730006515565544,0.9882851063648631,1.1305231009491632
Photo,1,4,3,8,0.0,40,0.9484732824427481,0.8263305875432726,0.9140905109645526,1.001555383528843
Photo,1,4,2,13,0.0,44,0.9674657534246576,1.024442788465269,1.0655578805809744,1.0694019105683086
Photo,3,4,2,2,1.0,62,0.9482758620689655,0.9923046911353011,1.0328946214324912,0.9555114450274363
Photo,2,4,1,13,1.0,881,0.7071908949818935,1.0040304410154277,1.0221365666388136,0.8560965021196454
Photo,1,4,1,2,0.0,115,0.9106382978723404,0.8082923658099733,0.8699423016892371,0.9921496927224035
Photo,3,4,7,14,0.0,71,0.9324324324324325,0.9743069994168798,1.0178764476421107,0.9254324918322496
Photo,3,4,7,13,0.0,138,0.9018302828618968,0.9799739345009253,1.0124880545032815,0.9491505263586516
Photo,1,4,6,9,0.0,58,0.9469548133595285,1.0068698527665028,1.0384503541629553,1.0336717343861062
Photo,3,4,6,3,1.0,115,0.9087301587301587,1.0681258905888353,1.0489892152838978,0.9871258769637145
Photo,1,4,5,9,0.0,97,0.9708520179372198,0.9336944584325724,1.0484595618974903,1.4029276958266512
Photo,3,4,5,3,0.0,90,0.9414414414414415,0.9768661277682092,0.9961207263905807,1.0221705931681675
Photo,3,4,4,13,0.0,225,0.8825174825174825,1.0086807000352924,1.0020504632181735,1.1104234495964542
Photo,3,4,4,5,1.0,122,0.8957169459962756,1.0003269461139057,1.0180939725109286,0.9680902272342965
Photo,1,4,3,13,1.0,376,0.8035190615835777,1.0067951639514876,1.0771975135030034,1.1715634865295463
Photo,1,4,3,4,1.0,149,0.8798920377867746,0.7843870358416336,0.8621158175951225,1.0451871219945292
Link,1,4,2,6,0.0,420,0.8049490538573508,0.8450147635820949,0.9379406875445863,0.9585330370724559
Photo,3,4,1,3,0.0,77,0.9426751592356688,0.9529564737134465,0.9808292530117262,1.0298454314210175
Photo,3,4,7,10,0.0,90,0.9359504132231405,0.9537576739711239,0.9592404402406705,1.0060840186630686
Photo,3,4,7,3,0.0,124,0.9210526315789473,0.9622617117393025,0.9626005309852551,1.042820929039694
Photo,3,4,6,9,1.0,67,0.9263657957244655,0.9420831746762643,0.9696367125794478,1.0322263626082981
Link,1,4,6,4,0.0,44,0.9526627218934911,0.8024715191654802,0.8718533255921767,0.9900259637614007
Photo,2,4,5,13,0.0,168,0.907051282051282,0.9760318339392849,0.9819725260147041,1.1693672751484605
Photo,2,4,5,3,0.0,173,0.9127725856697819,0.9831422235139413,0.9878271821993707,1.1395206725452498
Photo,3,4,4,13,0.0,91,0.9077568134171907,0.9307118921194811,0.958496926957235,0.9949087742179129
Photo,1,4,4,3,1.0,104,0.9313725490196079,0.9310769058658395,0.951611062233634,1.0604482857223518
Photo,1,3,5,14,1.0,81,0.9168278529980658,0.9461436950238362,0.9447131495288837,1.0639167010426405
Photo,1,3,4,14,1.0,208,0.8965986394557823,0.9511006602371821,0.9456429438866826,1.2617137990154526
Photo,1,3,4,7,0.0,249,0.8953418027828192,3.151465356426895,3.1740564715131656,0.9920025536098515
Status,1,3,3,15,0.0,34,0.9852786540483701,0.9625296075144341,0.9764154786489389,0.873844041626898
Photo,1,3,3,10,0.0,0,1.0,0.8416407854427326,0.873976727182739,1.120591195386885
Photo,1,3,3,10,0.0,39,0.9763948497854077,0.999128767582451,1.0169278140850075,0.9884181131645476
Photo,1,3,3,4,0.0,53,0.9655831739961759,0.9638052420980401,0.9945451389848569,1.0310363497597033
Photo,1,3,2,12,0.0,74,0.9535315985130112,1.0305495926652692,1.0470666117331184,1.20098326547757
Photo,1,3,2,3,0.0,39,0.9632829373650108,1.050081870712809,1.0719099675976869,1.039969828055666
Photo,1,3,1,19,0.0,2,0.993006993006993,1.2222913848496206,1.2245229089211516,2.2432853507127537
Photo,1,3,1,18,0.0,120,0.9371534195933456,1.0141424839537296,0.97859461521031,2.6551235866292187
Photo,1,3,1,18,0.0,38,0.9877551020408163,1.0528410006032694,1.0498305761194873,2.6672060902722814
Link,3,3,1,3,0.0,85,0.8687943262411347,0.948967954764587,0.9687828900910208,0.8334126053658121
Photo,1,3,7,18,0.0,7,0.9923664122137404,1.0674409337651702,1.065617766533071,2.2231694288309995
Photo,1,3,7,17,0.0,230,0.950319375443577,1.1223057607961393,1.1214802174966239,2.4148279482748136
Photo,1,3,7,15,0.0,2,1.0,1.0176760928388306,1.017535227928047,1.6677548293917106
Photo,1,3,7,15,0.0,3,1.0,1.0466490149131942,1.0454218240456803,2.1256774260441715
Link,1,3,7,14,0.0,6,0.9583333333333334,1.0129947264648451,1.0899599884346833,0.8622235106038794
Photo,1,3,7,12,0.0,4,0.9854368932038835,1.038287857907727,1.0376767493111272,2.0918640616783932
Photo,1,3,6,17,0.0,5,0.989247311827957,0.9578911843793008,0.9563657808333519,2.17455233956744
Photo,1,3,6,17,0.0,237,0.9510985116938342,1.1278082935110136,1.121992214194423,2.332648846574622
Photo,1,3,6,15,0.0,17,0.995575221238938,1.0447073834535205,1.0061192209648335,2.19937676878955
Photo,1,3,6,15,0.0,110,0.9437819420783645,1.0229129651357967,1.0083528150134755,2.235331023683992
Photo,1,3,6,13,1.0,143,0.9773798303487277,1.002090073799079,0.9953463639871195,2.6835443323034456
Photo,1,3,6,10,0.0,149,0.9235251274581209,1.5520798660284219,1.875692099466141,1.6926173956839727
Link,2,3,6,6,0.0,49,0.6893203883495146,1.0151168558145314,1.0493872473446182,0.7199584380106021
Photo,1,3,6,3,0.0,86,0.9428571428571428,0.965139227189519,0.9971167993766559,1.092163625141576
Photo,1,3,5,10,0.0,36,0.9633699633699634,1.024628840211408,1.0484218369944396,1.0228115240188813
Photo,1,3,5,4,1.0,0,1.0,0.8949259093764583,0.9559692156923313,0.6931471805599453
Photo,3,3,4,13,0.0,771,0.7265870521684475,1.878769637786947,1.945677607138585,0.9125686432097814
Photo,3,3,2,9,0.0,73,0.9439728353140917,1.0515628341368357,1.1242999262161988,1.0884599172040916
Photo,2,3,2,5,0.0,68,0.9651741293532339,1.0194424847091388,1.0853323778036577,1.1952391243571814
Photo,1,3,1,13,1.0,63,0.9535864978902954,1.0399595051205952,1.0967896587808441,1.3019069688423432
Photo,1,3,1,2,1.0,228,0.9891721969961579,0.8176809108685366,0.9608703635072435,2.6643869896152803
Photo,1,3,7,10,1.0,118,0.979557069846678,1.0166247855959625,1.049925971070182,1.8176417596067242
Photo,1,3,7,5,1.0,67,0.9832432432432432,0.9295543354032781,1.1163921089042579,1.8332592001348078
Photo,1,2,6,13,1.0,266,0.925184862983906,1.9484413687665587,1.988406547864609,1.2203304324569826
Photo,1,2,6,6,0.0,172,0.9594882729211087,0.9584150736072352,1.070800736175276,1.6185426794270197
Photo,1,2,5,12,0.0,125,0.9640234948604993,1.024608218015858,1.076457448401495,1.4641678705458818
Photo,1,2,5,6,0.0,68,0.98464025869038,1.0430588974703388,1.0684242652786735,1.4253757111623617
Photo,3,2,4,12,0.0,128,0.9602473498233216,1.0252107437228974,1.0545920905250001,1.4095641091348499
Photo,3,2,4,3,0.0,282,0.9313087490961678,1.0062818519742762,1.030075725653598,1.363821505267832
Photo,3,2,3,13,0.0,217,0.9397260273972603,0.9804026914590462,0.9986221441596249,1.400706139781194
Photo,1,2,3,9,1.0,29,0.9905163329820864,1.0205653051067236,1.0812639596628226,1.3850372899298395
Photo,1,2,3,6,0.0,178,0.9592641261498029,0.9268716436708931,1.1032069800464201,1.8679548249637954
Photo,3,2,2,13,0.0,165,0.9596448748991122,1.010493491853233,1.039890772523001,1.297481181840998
Photo,2,2,2,3,1.0,163,0.9439696106362773,1.0007152750290684,1.013986396885329,1.3879935968728505
Photo,3,2,1,13,0.0,1873,0.7891725352112676,2.5643284598010005,2.685014844053469,1.075410304092535
Photo,1,2,1,4,0.0,95,0.9790859798605732,1.000719411490946,1.0107815752950775,1.2974786274092505
Photo,3,2,7,13,1.0,311,0.9419174247725682,0.9918120474168901,0.9881972179576972,1.31508494172018
Photo,3,2,7,2,1.0,176,0.9532983070636311,1.4452594402639618,0.9414628129486597,1.6494366339253808
Photo,1,2,6,13,0.0,313,0.9343271555197421,1.3518751333111707,1.60463212847248,1.4585700394557677
Photo,3,2,6,3,0.0,170,0.9562607204116638,0.9822933257063045,0.9967072014657037,1.244643844056864
Photo,2,2,5,13,1.0,71,0.9726027397260274,0.9331722275897583,0.952081694323427,1.2518037358079077
Photo,2,2,5,3,1.0,238,0.9015151515151515,1.4463409525217608,1.5124980868941196,1.1258116341649258
Photo,1,2,4,12,0.0,305,0.8906547997457088,1.1178529949494382,1.1384482202649988,1.100511624471762
Photo,3,2,4,3,0.0,264,0.9437751004016064,1.0156002314123294,1.0229274113057563,1.2138008932621986
Link,1,2,3,13,0.0,131,0.8504464285714286,0.9561854047304326,0.9727738455148858,0.8277940222683335
Photo,3,2,3,3,0.0,224,0.9399624765478424,0.9989643820439689,1.0273481043389368,1.2071257233855517
Photo,1,2,2,13,0.0,61,0.9766627771295215,0.9921909900530629,1.01280314454119,1.1596575911520586
Photo,3,2,2,4,1.0,182,0.9402390438247012,0.9899018255364994,1.0120614935550494,1.140544777472392
Photo,1,2,1,12,0.0,86,0.9781746031746031,1.0323941381145956,1.002848120568885,1.5467487867498724
Photo,3,1,6,16,1.0,84,0.9694656488549618,0.9576214603667101,1.0008267785364005,1.4945079457601234
Photo,3,1,5,13,0.0,106,0.9631901840490797,0.9476577641554277,0.9882660247692812,1.3924863313678115
Photo,3,1,5,4,0.0,127,0.9650850492390332,0.9950726104873466,1.0300530235676215,1.3686864489303097
Photo,2,1,4,11,0.0,515,0.9279228149829739,1.0303903793054197,0.9978095608576478,1.5678654055095957
Link,1,1,4,4,1.0,7,0.9545454545454546,0.956227766281418,1.008537242455932,0.7822749604559527
Photo,2,1,3,3,0.0,97,0.9653284671532847,0.9511449000008488,0.9857992968630768,1.4081292897230908
Photo,3,1,2,7,0.0,108,0.963276836158192,0.978370876536147,1.0252562150936348,1.407240499118149
Link,1,1,2,2,0.0,14,0.8939393939393939,0.963088643032673,1.01595940400444,0.7993693938152527
Photo,3,1,1,12,0.0,83,0.9735294117647059,0.9536454589550398,1.0028064031734938,1.3415584672784993
Photo,3,1,1,2,0.0,66,0.9791013584117032,0.92674929734904,0.9682593787369342,1.3696166172781061
Photo,3,1,7,10,0.0,378,0.9033404406538735,1.0289564581498418,1.0365681473685624,1.3964696891615431
Photo,3,1,7,2,0.0,103,0.9620512820512821,0.9614234219814948,1.011213989638443,1.3758230612525952
Photo,3,1,6,11,0.0,110,0.9579390115667719,0.9739162083405434,1.0096154709203768,1.3532724928149442
Photo,3,1,6,3,1.0,152,0.9424686192468619,0.9760474632948188,1.0070737802311995,1.2833463918674481
Photo,3,1,1,2,0.0,257,0.9423240033927057,0.9781509191188882,0.9609050775659675,1.204401896801947
Photo,3,1,7,10,0.0,176,0.9333333333333333,0.9958546924879713,1.011769768797616,1.216921778666739
Photo,3,1,7,2,0.0,84,0.965893587994543,0.9589215080079784,0.9751630215765718,1.2564006589381924
Photo,2,1,5,8,0.0,75,0.9459962756052142,1.026020996601625,1.05869424752055,1.1885724329989922
Photo,1,1,5,2,0.0,115,0.9152,1.0681549003591508,1.093855038895849,1.1600468238680899
Photo,3,1,4,11,0.0,136,0.9169329073482428,1.0367437109118856,1.0470041283106752,1.1782391094568827
Photo,2,1,4,4,0.0,119,0.9290780141843972,1.0083830978831299,1.0134174426048779,1.2093381320144945
